{
"type": "FeatureCollection",
"name": "Proposed",
"crs": { "type": "name", "properties": { "name": "urn:ogc:def:crs:OGC:1.3:CRS84" } },
"features": [
{ "type": "Feature", "properties": { "Name": "07 ESA Harwell", "description": null }, "geometry": { "type": "Point", "coordinates": [ -1.30761, 51.5761 ] } },
{ "type": "Feature", "properties": { "Name": "08 St Davids", "description": null }, "geometry": { "type": "Point", "coordinates": [ -5.265941502242578, 51.881124720428929 ] } },
{ "type": "Feature", "properties": { "Name": "09 Dunsink Observatory", "description": null }, "geometry": { "type": "Point", "coordinates": [ -6.338694643916922, 53.387354321593833 ] } },
{ "type": "Feature", "properties": { "Name": "10 BGS Lerwick", "description": null }, "geometry": { "type": "Point", "coordinates": [ -1.185891, 60.139652 ] } },
{ "type": "Feature", "properties": { "Name": "11 BGS Edinburgh", "description": null }, "geometry": { "type": "Point", "coordinates": [ -3.314936, 55.912531 ] } },
{ "type": "Feature", "properties": { "Name": "12 BGS Hartland", "description": null }, "geometry": { "type": "Point", "coordinates": [ -4.480535, 50.993627 ] } },
{ "type": "Feature", "properties": { "Name": "13 BGS Eskdalemuir", "description": null }, "geometry": { "type": "Point", "coordinates": [ -3.173245, 55.268892 ] } },
{ "type": "Feature", "properties": { "Name": "14 BGS Keyworth", "description": null }, "geometry": { "type": "Point", "coordinates": [ -1.078924304967682, 52.878803993958911 ] } },
{ "type": "Feature", "properties": { "Name": "15 TRIG - Penare Farm Solar", "description": null }, "geometry": { "type": "Point", "coordinates": [ -5.074713, 50.302123 ] } },
{ "type": "Feature", "properties": { "Name": "16 TRIG - Tamar Heights Solar", "description": null }, "geometry": { "type": "Point", "coordinates": [ -4.112333, 51.063592 ] } },
{ "type": "Feature", "properties": { "Name": "17 TRIG - Parley Court Solar Farm", "description": null }, "geometry": { "type": "Point", "coordinates": [ -1.854422, 50.787901 ] } },
{ "type": "Feature", "properties": { "Name": "18 TRIG - Marvel Farms Solar Park", "description": null }, "geometry": { "type": "Point", "coordinates": [ -1.276693, 50.672279 ] } },
{ "type": "Feature", "properties": { "Name": "19 TRIG - Egmere Airfield Solar Park", "description": null }, "geometry": { "type": "Point", "coordinates": [ 0.828578, 52.90677 ] } },
{ "type": "Feature", "properties": { "Name": "20 Kirkwall", "description": null }, "geometry": { "type": "Point", "coordinates": [ -2.956351, 58.980885 ] } },
{ "type": "Feature", "properties": { "Name": "21 St Kilda", "description": null }, "geometry": { "type": "Point", "coordinates": [ -8.584977, 57.818954 ] } },
{ "type": "Feature", "properties": { "Name": "22 Stornoway", "description": null }, "geometry": { "type": "Point", "coordinates": [ -6.378937, 58.208947 ] } },
{ "type": "Feature", "properties": { "Name": "23 Castlebay, Barra", "description": null }, "geometry": { "type": "Point", "coordinates": [ -7.487055, 56.954969 ] } },
{ "type": "Feature", "properties": { "Name": "24 Douglas, Isle of Man", "description": null }, "geometry": { "type": "Point", "coordinates": [ -4.481423608611388, 54.15077386023146 ] } },
{ "type": "Feature", "properties": { "Name": "25 Wick", "description": null }, "geometry": { "type": "Point", "coordinates": [ -3.090047000269376, 58.439691000186613 ] } },
{ "type": "Feature", "properties": { "Name": "26 Kinlochbervie", "description": null }, "geometry": { "type": "Point", "coordinates": [ -5.052845, 58.459044 ] } },
{ "type": "Feature", "properties": { "Name": "27 Portree, Skye", "description": null }, "geometry": { "type": "Point", "coordinates": [ -6.197024, 57.415279 ] } },
{ "type": "Feature", "properties": { "Name": "28 Ullapool", "description": null }, "geometry": { "type": "Point", "coordinates": [ -5.162012, 57.895757 ] } },
{ "type": "Feature", "properties": { "Name": "29 Inverness", "description": null }, "geometry": { "type": "Point", "coordinates": [ -4.225636, 57.480241 ] } },
{ "type": "Feature", "properties": { "Name": "30 Lossiemouth", "description": null }, "geometry": { "type": "Point", "coordinates": [ -3.287687, 57.718839 ] } },
{ "type": "Feature", "properties": { "Name": "31 Aberdeen", "description": null }, "geometry": { "type": "Point", "coordinates": [ -2.094859, 57.146022 ] } },
{ "type": "Feature", "properties": { "Name": "32 Arbroath", "description": null }, "geometry": { "type": "Point", "coordinates": [ -2.587184, 56.5545 ] } },
{ "type": "Feature", "properties": { "Name": "33 Tobermory, Mull", "description": null }, "geometry": { "type": "Point", "coordinates": [ -6.07056, 56.622075 ] } },
{ "type": "Feature", "properties": { "Name": "34 Bowmore, Islay", "description": null }, "geometry": { "type": "Point", "coordinates": [ -6.287988, 55.756185 ] } },
{ "type": "Feature", "properties": { "Name": "35 Glasgow", "description": null }, "geometry": { "type": "Point", "coordinates": [ -4.288275, 55.871993 ] } },
{ "type": "Feature", "properties": { "Name": "36 Fort William", "description": null }, "geometry": { "type": "Point", "coordinates": [ -5.106426, 56.82181 ] } },
{ "type": "Feature", "properties": { "Name": "37 Aviemore", "description": null }, "geometry": { "type": "Point", "coordinates": [ -3.825038, 57.196928 ] } },
{ "type": "Feature", "properties": { "Name": "38 Newton Stewart", "description": null }, "geometry": { "type": "Point", "coordinates": [ -4.485623999920571, 54.95962299905456 ] } },
{ "type": "Feature", "properties": { "Name": "39 Berwick-upon-Tweed", "description": null }, "geometry": { "type": "Point", "coordinates": [ -2.00552, 55.769326 ] } },
{ "type": "Feature", "properties": { "Name": "40 Malin Head", "description": null }, "geometry": { "type": "Point", "coordinates": [ -7.338572, 55.371451 ] } },
{ "type": "Feature", "properties": { "Name": "41 Glencolumbkille", "description": null }, "geometry": { "type": "Point", "coordinates": [ -8.733443, 54.707578 ] } },
{ "type": "Feature", "properties": { "Name": "42 Enniskillen", "description": null }, "geometry": { "type": "Point", "coordinates": [ -7.633062, 54.343747 ] } },
{ "type": "Feature", "properties": { "Name": "43 Carrowdore", "description": null }, "geometry": { "type": "Point", "coordinates": [ -5.571653, 54.572427 ] } },
{ "type": "Feature", "properties": { "Name": "44 Pitlochry", "description": null }, "geometry": { "type": "Point", "coordinates": [ -3.729531, 56.703963 ] } },
{ "type": "Feature", "properties": { "Name": "45 Bovedy", "description": null }, "geometry": { "type": "Point", "coordinates": [ -6.608888, 54.946210105902743 ] } },
{ "type": "Feature", "properties": { "Name": "46 Belmullet", "description": null }, "geometry": { "type": "Point", "coordinates": [ -9.98458, 54.226546 ] } },
{ "type": "Feature", "properties": { "Name": "47 Ballyhaunis", "description": null }, "geometry": { "type": "Point", "coordinates": [ -8.764527, 53.762762 ] } },
{ "type": "Feature", "properties": { "Name": "48 Mullingar", "description": null }, "geometry": { "type": "Point", "coordinates": [ -7.338078, 53.52497 ] } },
{ "type": "Feature", "properties": { "Name": "49 Galway", "description": null }, "geometry": { "type": "Point", "coordinates": [ -9.053589, 53.268741 ] } },
{ "type": "Feature", "properties": { "Name": "50 Tipperary", "description": null }, "geometry": { "type": "Point", "coordinates": [ -8.161604, 52.473407 ] } },
{ "type": "Feature", "properties": { "Name": "51 Wexford", "description": null }, "geometry": { "type": "Point", "coordinates": [ -6.46087, 52.335891 ] } },
{ "type": "Feature", "properties": { "Name": "52 Cork", "description": null }, "geometry": { "type": "Point", "coordinates": [ -8.48351, 51.895661 ] } },
{ "type": "Feature", "properties": { "Name": "53 Dingle", "description": null }, "geometry": { "type": "Point", "coordinates": [ -10.271612, 52.139592 ] } },
{ "type": "Feature", "properties": { "Name": "54 Newcastle upon Tyne", "description": null }, "geometry": { "type": "Point", "coordinates": [ -1.613946, 54.979332 ] } },
{ "type": "Feature", "properties": { "Name": "55 Middlesborough", "description": null }, "geometry": { "type": "Point", "coordinates": [ -1.234947, 54.573544 ] } },
{ "type": "Feature", "properties": { "Name": "56 Whitehaven", "description": null }, "geometry": { "type": "Point", "coordinates": [ -3.588542, 54.549006 ] } },
{ "type": "Feature", "properties": { "Name": "57 Brough", "description": null }, "geometry": { "type": "Point", "coordinates": [ -2.318112, 54.526301 ] } },
{ "type": "Feature", "properties": { "Name": "58 Liverpool", "description": null }, "geometry": { "type": "Point", "coordinates": [ -2.994504, 53.406898 ] } },
{ "type": "Feature", "properties": { "Name": "59 Leeds", "description": null }, "geometry": { "type": "Point", "coordinates": [ -1.532475, 53.789899 ] } },
{ "type": "Feature", "properties": { "Name": "60 Hull", "description": null }, "geometry": { "type": "Point", "coordinates": [ -0.338936, 53.743556 ] } },
{ "type": "Feature", "properties": { "Name": "61 Hollyhead", "description": null }, "geometry": { "type": "Point", "coordinates": [ -4.635225, 53.309123 ] } },
{ "type": "Feature", "properties": { "Name": "62 Abersoch", "description": null }, "geometry": { "type": "Point", "coordinates": [ -4.505513, 52.824269 ] } },
{ "type": "Feature", "properties": { "Name": "63 Welshpool", "description": null }, "geometry": { "type": "Point", "coordinates": [ -3.145426, 52.657893 ] } },
{ "type": "Feature", "properties": { "Name": "64 Aberystwyth", "description": null }, "geometry": { "type": "Point", "coordinates": [ -4.08511, 52.415084 ] } },
{ "type": "Feature", "properties": { "Name": "65 Birmingham", "description": null }, "geometry": { "type": "Point", "coordinates": [ -1.911753, 52.484043 ] } },
{ "type": "Feature", "properties": { "Name": "66 Cambridge", "description": null }, "geometry": { "type": "Point", "coordinates": [ 0.122821, 52.205204 ] } },
{ "type": "Feature", "properties": { "Name": "67 Aldeburgh", "description": null }, "geometry": { "type": "Point", "coordinates": [ 1.599082, 52.154088 ] } },
{ "type": "Feature", "properties": { "Name": "68 Hugh Town, Scilly Isles", "description": null }, "geometry": { "type": "Point", "coordinates": [ -6.311876, 49.914186 ] } },
{ "type": "Feature", "properties": { "Name": "69 Salcombe", "description": null }, "geometry": { "type": "Point", "coordinates": [ -3.770435, 50.235509 ] } },
{ "type": "Feature", "properties": { "Name": "70 Bath", "description": null }, "geometry": { "type": "Point", "coordinates": [ -2.362431, 51.379412 ] } },
{ "type": "Feature", "properties": { "Name": "71 Eastbourne", "description": null }, "geometry": { "type": "Point", "coordinates": [ 0.281325, 50.764156 ] } },
{ "type": "Feature", "properties": { "Name": "72 Builth Wells", "description": null }, "geometry": { "type": "Point", "coordinates": [ -3.405168, 52.148975 ] } }
]
}
